City_ID,City,Lat,Lng,Max Temp,Humidity,Cloudiness,Wind Speed,Country,Date
0,ushuaia,-54.8,-68.3,6.81,65,100,3.09,AR,1682317218
1,invercargill,-46.4,168.35,11.68,82,92,0.89,NZ,1682317060
2,puerto natales,-51.7236,-72.4875,6.67,98,100,0.75,CL,1682317219
3,fale old settlement,-9.3852,-171.2468,28.11,74,35,0.87,TK,1682317219
4,grytviken,-54.2811,-36.5092,1.5,83,54,10.64,GS,1682317219
5,buka,40.8108,69.1986,26.21,22,86,2.81,UZ,1682317220
6,atafu village,-8.5421,-172.5159,28.91,72,30,1.75,TK,1682316979
7,shimanovsk,52.0,127.7,8.4,18,3,5.2,RU,1682317220
8,port-aux-francais,-49.35,70.2167,4.42,62,88,14.49,TF,1682317221
9,yellowknife,62.456,-114.3525,0.31,86,20,2.06,CA,1682317221
10,sars,56.5502,57.1366,12.95,52,100,3.38,RU,1682317221
11,blackmans bay,-43.0167,147.3167,18.72,61,1,1.63,AU,1682317222
12,paghman,34.5875,68.9533,16.81,17,6,2.07,AF,1682317222
13,san patricio,28.017,-97.5169,17.93,86,100,5.56,US,1682317222
14,canutama,-6.5339,-64.3831,22.14,99,81,1.11,BR,1682317223
15,iqaluit,63.7506,-68.5145,-0.15,100,100,1.54,CA,1682317223
16,saki,8.6667,3.3833,23.12,93,100,1.92,NG,1682317223
17,papatowai,-46.5619,169.4708,9.23,71,60,7.07,NZ,1682317224
18,talnakh,69.4865,88.3972,2.34,84,68,4.0,RU,1682317224
19,waitangi,-43.9535,-176.5597,8.79,87,100,0.89,NZ,1682317224
20,formosa,-26.1775,-58.1781,18.87,85,0,0.45,AR,1682317225
21,oranjemund,-28.55,16.4333,15.48,91,99,1.38,NA,1682317225
22,puerto ayora,-0.7393,-90.3518,25.31,94,48,1.79,EC,1682317226
23,hermanus,-34.4187,19.2345,17.67,93,100,6.01,ZA,1682317226
24,coahuayana de hidalgo,18.7,-103.6583,23.05,87,70,1.29,MX,1682317226
25,kodiak,57.79,-152.4072,-0.27,59,100,9.26,US,1682317226
26,jamestown,42.097,-79.2353,4.77,92,100,2.06,US,1682317227
27,mar del plata,-38.0023,-57.5575,14.41,96,100,2.06,AR,1682316997
28,wailua homesteads,22.0669,-159.378,24.24,93,75,2.57,US,1682317227
29,celestun,20.8667,-90.4,28.52,57,18,5.71,MX,1682317228
30,genhe,50.7833,121.5167,5.46,28,98,5.9,CN,1682317228
31,mount gambier,-37.8333,140.7667,23.21,37,0,1.08,AU,1682317228
32,gravellona toce,45.9286,8.4321,12.41,88,100,1.84,IT,1682317229
33,new norfolk,-42.7826,147.0587,19.38,44,1,0.45,AU,1682317229
34,port mathurin,-19.6833,63.4167,26.11,82,19,8.34,MU,1682317229
35,mananara,-16.1667,49.7667,27.58,76,38,1.56,MG,1682317230
36,rio grande,-32.035,-52.0986,19.39,92,100,4.33,BR,1682317230
37,severo-yeniseyskiy,60.3725,93.0408,4.24,81,100,4.09,RU,1682317230
38,rovaniemi,66.5,25.7167,-1.33,46,0,5.14,FI,1682317231
39,edinburgh of the seven seas,-37.0676,-12.3116,14.15,65,79,9.76,SH,1682317231
40,petropavlovsk-kamchatsky,53.0452,158.6483,3.33,56,75,5.0,RU,1682317232
41,arraial do cabo,-22.9661,-42.0278,21.05,75,0,2.31,BR,1682317232
42,luau,-10.7073,22.2247,19.91,87,96,1.2,AO,1682317232
43,bredasdorp,-34.5322,20.0403,18.13,90,100,2.64,ZA,1682317233
44,tiksi,71.6872,128.8694,-5.82,86,47,3.12,RU,1682317233
45,bethel,41.3712,-73.414,8.44,86,30,0.45,US,1682317233
46,umuarama,-23.7664,-53.325,18.55,84,92,2.52,BR,1682317234
47,polyarnyy,69.1989,33.4478,-2.2,80,17,5.78,RU,1682317234
48,ilulissat,69.2167,-51.1,0.01,100,100,1.54,GL,1682317234
49,georgetown,5.4112,100.3354,32.96,66,20,4.12,MY,1682317235
50,gadzhiyevo,69.2551,33.3362,-2.62,82,23,6.1,RU,1682317235
51,nogliki,51.8333,143.1667,3.38,66,35,7.03,RU,1682317236
52,ribeira grande,38.5167,-28.7,17.22,88,75,7.2,PT,1682317236
53,margaret river,-33.95,115.0667,12.9,74,83,6.47,AU,1682317236
54,guerrero negro,27.9769,-114.0611,14.6,85,0,4.37,MX,1682317237
55,woodfield,34.0593,-80.9309,17.9,58,100,3.09,US,1682317237
56,kapa'a,22.0752,-159.319,24.99,93,75,2.57,US,1682317237
57,cape coast,5.1053,-1.2466,26.59,84,100,1.21,GH,1682317237
58,udachny,66.4167,112.4,-2.18,79,87,1.32,RU,1682317238
59,raduzhny,62.0961,77.475,-0.51,81,100,7.93,RU,1682317238
60,barcelos,41.5388,-8.6151,15.47,96,98,0.95,PT,1682317238
61,port elizabeth,-33.918,25.5701,19.16,93,20,2.57,ZA,1682317238
62,la'ie,21.6477,-157.9253,25.0,76,97,1.24,US,1682317239
63,enewetak,11.3474,162.3373,27.11,83,100,8.08,MH,1682317239
64,hasaki,35.7333,140.8333,17.38,43,100,4.73,JP,1682317240
65,stanley,54.868,-1.6985,4.33,87,0,3.6,GB,1682317183
66,utrik,11.2278,169.8474,26.85,83,41,8.94,MH,1682317241
67,san luis,-33.295,-66.3356,14.01,84,100,3.28,AR,1682317020
68,saint-philippe,-21.3585,55.7679,28.77,67,21,4.81,RE,1682317241
69,adamstown,-25.066,-130.1015,24.2,90,98,7.09,PN,1682317242
70,luderitz,-26.6481,15.1594,15.87,66,84,2.55,NA,1682317153
71,ban karon,7.8477,98.2985,33.95,65,96,1.22,TH,1682317242
72,al bayda,32.7627,21.7551,16.64,56,73,2.58,LY,1682317243
73,malango,-2.9627,119.9001,24.87,91,68,0.96,ID,1682317243
74,labuan,5.2767,115.2417,32.2,66,20,3.6,MY,1682317243
75,fort bragg,35.139,-79.006,15.32,72,40,1.54,US,1682317005
76,abu jibeha,11.4562,31.2285,31.41,40,66,6.39,SD,1682317244
77,bilibino,68.0546,166.4372,-0.84,76,1,2.56,RU,1682317244
78,berezovo,63.9381,65.0419,-0.74,55,7,6.87,RU,1682317245
79,berezovyy,51.6667,135.7,5.9,52,100,5.31,RU,1682317245
80,magong,23.5654,119.5863,22.35,86,92,9.44,TW,1682317246
81,nyurba,63.2842,118.3319,0.05,83,17,2.87,RU,1682317246
82,callaway,30.153,-85.5699,19.44,63,75,4.12,US,1682317247
83,taltal,-25.4,-70.4833,16.87,86,6,0.73,CL,1682317247
84,marksville,31.128,-92.0662,12.7,77,100,4.79,US,1682317231
85,labrador city,52.9463,-66.9114,-3.05,93,0,1.54,CA,1682317247
86,labytnangi,66.6572,66.4183,-5.62,78,28,6.37,RU,1682317248
87,kapuskasing,49.4169,-82.4331,-1.95,93,75,2.06,CA,1682317248
88,palmerston,-12.486,130.9833,33.35,53,0,6.69,AU,1682317248
89,port alfred,-33.5906,26.891,22.1,59,100,3.21,ZA,1682317249
90,nizhneangarsk,55.7833,109.55,-3.61,69,25,1.95,RU,1682317249
91,hammerfest,70.6634,23.6821,-0.75,80,40,3.09,NO,1682317249
92,bantay,17.5847,120.3892,32.2,88,48,5.0,PH,1682317249
93,floriano,-6.7669,-43.0225,21.68,81,56,0.72,BR,1682317250
94,axim,4.8699,-2.2405,26.52,85,100,0.93,GH,1682316980
95,safi,32.1667,-8.8333,13.53,66,0,4.0,MA,1682317250
96,alofi,-19.0595,-169.9187,23.94,83,75,2.06,NU,1682317251
97,puerto armuelles,8.2833,-82.8667,25.5,83,7,1.99,PA,1682317251
98,velikiye luki,56.34,30.5452,13.6,64,65,4.35,RU,1682317251
99,kristiansund,63.1115,7.732,2.36,75,75,6.17,NO,1682317252
100,kalmunai,7.4167,81.8167,31.38,63,99,3.96,LK,1682317252
101,eirunepe,-6.6603,-69.8736,21.97,99,74,0.69,BR,1682317252
102,thakhek,17.4103,104.8307,32.06,34,99,3.02,LA,1682317253
103,balabac,7.9868,117.0645,30.45,66,100,4.46,PH,1682317253
104,hithadhoo,-0.6,73.0833,29.27,68,100,2.31,MV,1682317253
105,haiku-pauwela,20.9219,-156.3051,22.8,83,75,1.54,US,1682317254
106,zholymbet,51.7433,71.7122,6.92,88,48,6.97,KZ,1682317254
107,abu dhabi,24.4667,54.3667,32.06,30,0,1.54,AE,1682317248
108,gonabad,34.3529,58.6837,25.9,13,98,5.92,IR,1682317254
109,sachin,21.0833,72.8833,33.92,35,58,1.16,IN,1682317255
110,anahuac,27.2333,-100.15,14.6,80,100,4.39,MX,1682317255
111,tillaberi,14.2117,1.4531,27.58,11,34,2.8,NE,1682317255
112,tsaratanana,-16.7833,47.65,27.89,66,0,0.26,MG,1682317256
113,kachug,53.9606,105.8817,7.16,25,0,1.02,RU,1682317256
114,sinop,41.7711,34.8709,7.24,98,100,1.53,TR,1682317257
115,hastings,50.8552,0.5729,8.32,50,23,3.57,GB,1682317257
116,hadibu,12.65,54.0333,29.52,59,94,0.4,YE,1682317257
117,uturoa,-16.7333,-151.4333,27.14,79,71,3.57,PF,1682317258
118,lompoc,34.6391,-120.4579,12.66,81,100,10.28,US,1682317197
119,le luc,43.3932,6.3147,16.17,64,9,3.09,FR,1682317259
120,yuzhno-kurilsk,44.0306,145.8556,4.92,63,100,1.9,RU,1682317259
121,kayangel,8.0823,134.7173,28.54,68,96,1.95,PW,1682317259
122,ust-nera,64.5667,143.2,-3.3,88,100,3.67,RU,1682317260
123,cidreira,-30.1811,-50.2056,20.63,86,95,5.94,BR,1682317260
124,zhanaozen,43.3,52.8,23.67,21,96,11.94,KZ,1682317260
125,alice springs,-23.7,133.8833,27.75,26,8,3.09,AU,1682317261
126,daru,-9.0763,143.2092,28.33,79,100,4.63,PG,1682317261
127,whitehorse,60.7161,-135.0538,4.43,81,100,3.09,CA,1682317262
128,pechora,65.1472,57.2244,-1.77,70,18,5.46,RU,1682317262
129,chantonnay,46.687,-1.0502,8.18,92,55,2.52,FR,1682317262
130,tabou,4.423,-7.3528,26.36,87,100,2.22,CI,1682317263
131,ondjiva,-17.0667,15.7333,20.51,68,45,2.08,AO,1682317263
132,st. john's,47.5649,-52.7093,2.66,96,100,9.83,CA,1682317200
133,albany,42.6001,-73.9662,5.36,83,99,3.58,US,1682316689
134,la trinite,14.7376,-60.9629,24.91,49,0,1.54,MQ,1682317264
135,pangody,65.85,74.4859,-1.83,94,100,8.54,RU,1682317264
136,hawaiian paradise park,19.5933,-154.9731,23.73,91,100,1.54,US,1682317265
137,sao gabriel da cachoeira,-0.1303,-67.0892,22.24,99,36,0.58,BR,1682317265
138,shache,38.4167,77.2406,22.62,14,2,2.87,CN,1682317265
139,masterton,-40.9597,175.6575,9.38,82,24,3.1,NZ,1682317266
140,santa terezinha,-29.9002,-50.0904,19.76,87,95,5.56,BR,1682317266
141,pointe-du-lac,46.2869,-72.6845,6.99,92,100,4.12,CA,1682317266
142,weno,7.4515,151.8468,30.97,74,40,3.09,FM,1682317267
143,san luis de since,9.2439,-75.1468,23.52,85,24,2.05,CO,1682317267
144,homer,59.6425,-151.5483,2.93,57,0,1.79,US,1682317267
145,ninghai,29.2892,121.4247,14.02,92,100,3.47,CN,1682317267
146,ola,59.5833,151.2833,3.97,75,100,6.91,RU,1682317268
147,ben gardane,33.1378,11.2197,16.75,50,0,1.6,TN,1682317268
148,madera,37.1666,-119.8343,19.05,93,2,1.99,US,1682317269
149,kuta,-8.7233,115.1723,30.97,70,20,6.26,ID,1682317269
150,alto barinas,8.5931,-70.2261,23.04,100,86,3.26,VE,1682317269
151,ceres,37.5949,-120.9577,16.56,68,0,3.09,US,1682317110
152,lebu,-37.6167,-73.65,10.92,87,5,3.4,CL,1682317051
153,puerto deseado,-47.7503,-65.8938,11.58,69,16,6.54,AR,1682317270
154,hobyo,5.3505,48.5268,29.57,69,99,4.21,SO,1682317270
155,longyearbyen,78.2186,15.6401,-9.09,79,0,2.06,SJ,1682317271
156,itaituba,-4.2761,-55.9836,23.28,94,100,0.74,BR,1682317271
157,buta,2.7858,24.73,22.41,85,98,1.39,CD,1682317271
158,gisborne,-38.6533,178.0042,12.63,62,92,9.27,NZ,1682317272
159,margate,51.3813,1.3862,7.95,80,92,2.68,GB,1682317272
160,bengkulu,-3.8004,102.2655,29.89,69,88,3.59,ID,1682317272
161,kruisfontein,-34.0033,24.7314,17.71,73,100,2.26,ZA,1682317273
162,kidal,18.4411,1.4078,26.6,12,15,3.72,ML,1682317273
163,pisco,-13.7,-76.2167,21.12,83,0,0.51,PE,1682317273
164,punta arenas,-53.15,-70.9167,5.06,93,100,2.57,CL,1682317273
165,carbonear,47.7332,-53.2148,2.91,92,100,8.72,CA,1682317274
166,pizzo,38.7384,16.1658,20.19,100,33,2.57,IT,1682317274
167,khandyga,62.6667,135.6,1.85,72,97,4.05,RU,1682317275
168,avarua,-21.2078,-159.775,23.03,78,59,2.06,CK,1682317275
169,puerto santa,-8.9906,-78.6456,23.94,83,79,2.95,PE,1682317275
170,namibe,-15.1961,12.1522,23.8,71,42,3.45,AO,1682317276
171,afaahiti,-17.75,-149.2833,24.93,86,100,5.39,PF,1682317276
172,caleta de carquin,-11.0925,-77.6267,23.62,80,63,2.43,PE,1682317277
173,anadyr,64.75,177.4833,-5.72,85,40,13.0,RU,1682317277
174,smithers,54.7804,-127.1743,4.18,100,100,1.03,CA,1682317277
175,robat karim,35.4846,51.0829,23.92,33,100,0.0,IR,1682317278
176,arvayheer,46.2639,102.775,2.46,43,100,6.98,MN,1682317278
177,mejit,10.2753,170.8646,27.5,81,57,7.83,MH,1682317278
178,nelson bay,-32.7167,152.15,22.22,79,81,4.47,AU,1682317279
179,saldanha,-33.0117,17.9442,16.74,98,100,4.18,ZA,1682317081
180,olonkinbyen,70.9221,-8.7187,-4.88,80,94,8.01,SJ,1682317279
181,isafjordur,66.0755,-23.124,0.34,60,90,2.94,IS,1682317280
182,coracora,-15.0333,-73.7833,8.22,82,40,0.97,PE,1682317281
183,muynoq,43.7683,59.0214,22.35,30,18,8.43,UZ,1682317281
184,cheremukhovo,60.3484,59.9851,3.3,40,82,2.98,RU,1682317281
185,chonchi,-42.6128,-73.8092,4.56,92,1,0.73,CL,1682317282
186,nadym,65.5333,72.5167,-3.75,92,100,13.27,RU,1682317282
187,klyuchi,52.2667,79.1667,16.11,44,15,9.61,RU,1682317282
188,ziro,27.6333,93.8333,17.41,64,78,0.82,IN,1682317283
189,fushun,41.8558,123.9233,17.84,10,6,2.49,CN,1682317283
190,bel ombre,-4.6167,55.4167,30.91,74,20,2.06,SC,1682317283
191,badger,64.8,-147.5333,-8.89,54,75,8.75,US,1682317284
192,kavaratti,10.5669,72.642,29.01,69,94,5.75,IN,1682317284
193,upata,8.0086,-62.3989,22.33,89,94,0.49,VE,1682317284
194,grand falls-windsor,48.9332,-55.6649,1.39,94,100,0.89,CA,1682317285
195,east london,-33.0153,27.9116,20.52,73,0,2.06,ZA,1682317285
196,college,64.8569,-147.8028,-8.84,54,75,8.75,US,1682317285
197,chongwe,-15.3292,28.682,21.96,55,55,1.72,ZM,1682317285
198,qarshi,38.8667,65.8,27.9,23,0,4.12,UZ,1682317286
199,olinda,-8.0089,-34.8553,24.85,88,100,1.54,BR,1682317286
200,mana,5.6592,-53.7767,22.99,94,100,1.98,GF,1682317286
201,san antonio de pale,-1.4014,5.6325,27.41,76,97,1.9,GQ,1682317287
202,alesund,62.4723,6.1549,4.86,81,75,14.4,NO,1682317227
203,juye,35.3947,116.0883,13.38,61,99,1.71,CN,1682317204
204,bohicon,7.1783,2.0667,25.08,92,100,1.58,BJ,1682317287
205,aasiaat,68.7098,-52.8699,-1.18,99,100,1.02,GL,1682317288
206,nova sintra,14.8667,-24.7167,20.25,72,2,10.3,CV,1682317288
207,ikaalinen,61.7695,23.0658,6.53,91,100,4.21,FI,1682317288
208,dawei,14.0833,98.2,36.31,41,15,5.04,MM,1682317288
209,leava,-14.3,-178.1667,27.92,75,29,3.51,WF,1682317289
210,sarupathar,26.1984,93.8094,29.12,36,11,2.29,IN,1682317216
211,levuka,50.1834,-105.4011,-3.1,84,90,3.96,CA,1682317289
212,thompson,55.7435,-97.8558,-4.91,74,20,1.03,CA,1682317290
213,bikenibeu village,1.3673,173.1241,28.98,79,40,4.63,KI,1682317290
214,simanggang,1.2472,111.4528,28.99,79,20,1.03,MY,1682317290
215,reggane,26.7158,0.1714,24.91,17,0,7.56,DZ,1682317291
216,zabaykal'sk,49.6333,117.3167,6.08,13,93,7.55,RU,1682317291
217,katsuren-haebaru,26.3369,127.8719,26.01,65,20,5.66,JP,1682317291
218,aldan,58.6031,125.3894,-2.32,66,100,6.9,RU,1682317292
219,moroni,-11.7022,43.2551,28.45,75,14,1.59,KM,1682317292
220,cabedelo,-6.9811,-34.8339,24.37,85,96,4.16,BR,1682317292
221,khovd,48.0056,91.6419,8.18,25,98,2.93,MN,1682317292
222,hotan,37.0997,79.9269,22.92,9,0,1.68,CN,1682317293
223,nemuro,43.3236,145.575,2.4,94,99,4.37,JP,1682317293
224,torre del mar,36.7414,-4.0946,18.27,71,3,2.34,ES,1682317293
225,tura,25.5198,90.2201,31.81,31,7,2.04,IN,1682317293
226,qaqortoq,60.7167,-46.0333,-0.15,85,91,1.48,GL,1682317294
227,bayanhongor,46.7167,100.1167,1.98,38,73,2.44,MN,1682317294
228,opuwo,-18.0607,13.84,20.5,59,2,0.51,NA,1682317294
229,luoyang,34.6836,112.4536,6.99,91,100,1.42,CN,1682316817
230,dudinka,69.4058,86.1778,2.57,81,41,6.53,RU,1682317295
231,banes,20.9625,-75.7186,22.26,76,7,1.66,CU,1682317295
232,sulak,43.2734,47.5146,14.42,69,100,3.31,RU,1682317163
233,ocean shores,46.9737,-124.1563,8.34,95,100,3.58,US,1682317128
234,bekovo,52.4663,43.712,14.49,58,81,3.13,RU,1682317296
235,nikolayevsk-on-amure,53.1406,140.73,4.22,58,53,6.52,RU,1682317296
236,la ronge,55.1001,-105.2842,3.14,35,75,4.63,CA,1682317296
237,murmashi,68.8154,32.8115,-1.77,58,0,3.13,RU,1682317297
238,vorgashor,67.5833,63.95,-6.75,92,95,6.26,RU,1682317297
239,okondja,-0.6549,13.6753,22.07,96,92,0.52,GA,1682317298
240,hola,51.5377,23.1902,13.23,95,46,5.24,PL,1682317298
241,constantia,44.1833,28.65,12.61,71,2,3.03,RO,1682317298
242,puerto baquerizo moreno,-0.9,-89.6,25.75,80,46,3.63,EC,1682317299
243,senillosa,-39.0,-68.4167,16.11,57,0,3.86,AR,1682317299
244,west bay,19.3667,-81.4167,25.56,83,8,2.41,KY,1682317299
245,virginia beach,36.8529,-75.978,15.03,72,75,5.66,US,1682317299
246,satsuma,30.8532,-88.0561,17.94,68,100,4.12,US,1682317300
247,sittwe,20.15,92.9,31.58,56,14,4.58,MM,1682317300
248,keflavik,64.0049,-22.5624,3.24,93,100,4.12,IS,1682317300
249,midvagur,62.0511,-7.1939,1.46,69,100,6.17,FO,1682317301
250,burley,42.5357,-113.7928,7.94,80,40,2.24,US,1682317301
251,dakhla,23.6848,-15.958,18.12,88,4,8.79,EH,1682317302
252,west island,-12.1568,96.8225,28.99,84,75,7.72,CC,1682317302
253,colonia,50.9333,6.95,9.98,75,100,4.12,DE,1682317302
254,annau,37.8876,58.516,27.72,26,88,2.06,TM,1682317303
255,revda,56.801,59.9303,11.11,56,98,3.77,RU,1682317303
256,wangkui,46.8333,126.5,14.34,9,23,6.4,CN,1682317303
257,idabel,33.8957,-94.8263,8.26,95,100,2.06,US,1682317303
258,san-pedro,4.7485,-6.6363,25.95,89,99,2.26,CI,1682317304
259,galliano,29.4422,-90.2992,18.33,69,100,4.72,US,1682317304
260,rio preto da eva,-2.6994,-59.6997,22.38,97,99,0.62,BR,1682317304
261,maracaibo,10.6317,-71.6406,25.7,79,7,3.88,VE,1682317194
262,araguaina,-7.1911,-48.2072,22.66,83,100,0.63,BR,1682317305
263,altai,46.3722,96.2583,1.04,31,6,1.15,MN,1682317305
264,roma,43.2128,-75.4557,4.76,93,100,1.54,US,1682317306
265,tocopilla,-22.092,-70.1979,19.4,84,29,1.75,CL,1682317306
266,st anne,49.715,-2.2042,9.09,87,20,4.12,GG,1682317306
267,smidovich,48.6,133.8167,8.96,25,89,9.33,RU,1682317307
268,klaksvik,62.2266,-6.589,1.51,63,100,10.97,FO,1682317307
269,marapanim,-0.7175,-47.6997,23.18,94,100,1.51,BR,1682317307
270,iskateley,67.6803,53.1512,-4.13,88,18,7.73,RU,1682317307
271,burhanuddin,22.4918,90.7235,32.27,39,1,1.08,BD,1682317308
272,berdyansk,46.7503,36.7944,12.57,69,54,3.53,UA,1682317308
273,thunder bay,48.4001,-89.3168,-1.01,93,100,1.03,CA,1682317108
274,tobruk,32.0836,23.9764,17.81,79,40,5.91,LY,1682317309
275,six-fours-les-plages,43.0938,5.84,16.73,70,15,3.13,FR,1682317309
276,ebon,4.582,168.6964,28.52,77,86,7.83,MH,1682317310
277,san andres,12.5847,-81.7006,27.01,69,40,2.57,CO,1682317310
278,madaoua,14.073,5.96,26.32,64,98,3.93,NE,1682317310
279,seminole,28.7086,-81.2081,22.81,92,0,2.06,US,1682317024
280,contamana,-7.3333,-75.0167,23.75,91,100,0.77,PE,1682317311
281,vorkuta,67.5,64.0,-6.52,91,97,6.36,RU,1682317311
282,itoman,26.1247,127.6694,26.01,65,20,5.66,JP,1682317311
283,upper grand lagoon,30.1633,-85.7408,19.49,62,75,4.12,US,1682317311
284,santa rosalia,27.3167,-112.2833,19.85,41,0,5.17,MX,1682317312
285,kloulklubed,7.0419,134.2556,29.28,72,85,2.15,PW,1682317312
286,bereznik,62.8551,42.7072,2.3,89,100,3.38,RU,1682317312
287,zouerate,22.7187,-12.4521,18.84,53,0,3.81,MR,1682317313
288,moose jaw,50.4001,-105.5344,-2.86,86,93,3.6,CA,1682316920
289,mossel bay,-34.1831,22.146,19.96,82,100,2.18,ZA,1682317313
290,pokhara,28.2333,83.9833,26.82,30,100,2.72,NP,1682316783
291,salinopolis,-0.6136,-47.3561,25.53,82,100,2.88,BR,1682317082
292,zagora,30.3484,-5.8365,20.9,34,53,1.56,MA,1682317314
293,kyshtovka,56.555,76.6271,8.01,90,99,5.62,RU,1682317314
294,kulunda,52.566,78.9385,15.84,41,27,9.59,RU,1682317315
295,balkanabat,39.5108,54.3671,27.79,21,97,8.12,TM,1682317315
296,senanga,-16.1167,23.2667,23.67,46,100,0.8,ZM,1682317315
297,al hazm,16.1641,44.7769,26.9,42,82,2.49,YE,1682317315
298,mercedes,-34.6515,-59.4307,14.36,85,97,2.49,AR,1682317316
299,riverside,33.7333,-116.0508,24.44,29,0,7.72,US,1682317199
300,port lincoln,-34.7333,135.8667,21.7,57,0,5.01,AU,1682317316
301,gunjur,13.2019,-16.7339,22.04,73,0,2.57,GM,1682317316
302,lichinga,-13.3128,35.2406,19.05,88,75,4.12,MZ,1682317316
303,yekaterinoslavka,50.3734,129.1139,8.97,18,4,7.61,RU,1682317317
304,ancud,-41.8697,-73.8203,7.11,88,2,1.41,CL,1682317318
305,san martin,-33.081,-68.4681,13.3,68,48,2.99,AR,1682317318
306,wajir,1.7471,40.0573,28.47,68,86,4.6,KE,1682317318
307,suwayr,30.1171,40.3893,25.52,50,99,8.59,SA,1682317318
308,banda aceh,5.5577,95.3222,30.53,67,80,3.77,ID,1682317319
309,vilyuysk,63.7553,121.6247,0.14,89,19,4.61,RU,1682317319
310,governador valadares,-18.8511,-41.9494,21.25,75,100,0.1,BR,1682317319
311,karratha,-20.7377,116.8463,31.08,41,15,5.75,AU,1682317319
312,mont-joli,48.5839,-68.1921,3.72,81,75,4.63,CA,1682317320
313,mulayjah,27.271,48.4242,32.9,25,84,2.6,SA,1682317320
314,apolinario saravia,-24.4328,-63.9954,14.89,95,98,4.89,AR,1682317320
315,westport,41.1415,-73.3579,10.44,89,20,2.06,US,1682317321
316,saint-pierre,-21.3393,55.4781,29.2,65,20,2.57,RE,1682317321
317,ambovombe,-25.1667,46.0833,24.8,62,47,6.32,MG,1682317321
318,kodinsk,58.6881,99.1844,8.0,60,100,4.17,RU,1682317322
319,abadeh,31.1608,52.6506,17.2,38,11,0.84,IR,1682317322
320,tazovsky,67.4667,78.7,0.35,98,100,10.33,RU,1682317322
321,macenta,8.5435,-9.471,20.56,100,34,0.69,GN,1682317323
322,basco,20.4487,121.9702,25.46,70,57,4.71,PH,1682317323
323,mjolby,58.326,15.1237,6.17,83,68,1.73,SE,1682317323
324,lamu,-2.2717,40.902,29.12,76,81,2.32,KE,1682317323
325,ponta delgada,37.7333,-25.6667,16.4,100,75,6.69,PT,1682317324
326,vanino,49.0869,140.2543,7.32,51,100,1.1,RU,1682317324
327,kailua-kona,19.6406,-155.9956,25.98,87,40,3.6,US,1682317263
328,bulolo,-7.2,146.65,27.8,76,91,1.35,PG,1682317325
329,coquimbo,-29.9533,-71.3436,15.66,86,8,1.89,CL,1682317325
330,acajutla,13.5928,-89.8275,27.4,78,75,1.58,SV,1682317326
331,pacific grove,36.6177,-121.9166,11.82,88,100,3.6,US,1682317260
332,nakonde,-9.3421,32.745,18.58,84,84,2.42,ZM,1682317326
333,hirara,24.8,125.2833,26.15,69,40,3.6,JP,1682317327
334,cill airne,52.05,-9.5167,6.62,91,86,2.92,IE,1682317327
335,lihue,21.9789,-159.3672,24.58,94,75,2.57,US,1682317327
336,yacuiba,-22.038,-63.6797,17.12,97,100,1.07,BO,1682317328
337,thames,-37.1333,175.5333,12.84,61,3,3.75,NZ,1682317328
338,gogrial,8.5332,28.1004,28.37,53,78,4.49,SS,1682317329
339,nar'yan-mar,67.6713,53.087,-4.04,88,17,7.76,RU,1682317329
340,saudarkrokur,65.7461,-19.6394,0.83,65,69,0.22,IS,1682317329
341,codrington,-38.2667,141.9667,23.04,42,0,1.97,AU,1682317329
342,champerico,14.3,-91.9167,28.22,68,15,3.77,GT,1682317330
343,claremore,36.3126,-95.6161,9.58,67,0,1.54,US,1682317330
344,inari,68.906,27.0288,-3.89,71,30,1.39,FI,1682317331
345,la passe,45.5549,-0.8967,12.21,81,77,4.02,FR,1682317331
346,karungdong,5.8844,121.263,29.75,69,93,1.17,PH,1682317332
347,ludington,43.9553,-86.4526,3.39,79,99,1.34,US,1682317332
348,richmond,37.5538,-77.4603,10.1,46,75,4.63,US,1682317332
349,sao vicente,-23.9631,-46.3919,23.32,26,20,1.81,BR,1682317333
350,yorkton,51.2167,-102.4677,-2.09,80,20,3.6,CA,1682317333
351,bathsheba,13.2167,-59.5167,24.34,94,20,1.03,BB,1682317333
352,borgo,46.0514,11.4544,11.34,82,100,1.0,IT,1682317333
353,chinde,26.8418,88.0763,22.22,47,49,2.57,NP,1682317334
354,catriel,-37.8791,-67.7956,15.77,55,0,6.15,AR,1682317334
355,antalaha,-14.9003,50.2788,27.93,71,32,0.92,MG,1682317334
356,plettenberg bay,-34.0527,23.3716,20.06,78,100,0.93,ZA,1682317335
357,kuantan,3.8077,103.326,34.06,62,40,3.09,MY,1682317335
358,holly springs,35.6513,-78.8336,14.79,82,97,3.47,US,1682317297
359,port saint john's,-31.6229,29.5448,21.43,52,98,3.0,ZA,1682317336
360,vallegrande,-18.4897,-64.1069,9.13,94,15,0.73,BO,1682317336
361,novyye lyady,58.0536,56.6039,9.58,54,100,1.4,RU,1682317336
362,beidaihehaibin,39.8222,119.5181,13.01,36,22,7.26,CN,1682317336
363,minas de marcona,-15.2119,-75.1103,17.26,84,0,3.52,PE,1682317337
364,kourou,5.1552,-52.6478,23.03,92,90,0.98,GF,1682317338
365,jos,9.9167,8.9,20.87,75,100,2.91,NG,1682317338
366,newman,37.3138,-121.0208,16.13,78,5,0.89,US,1682317339
367,vilyuchinsk,52.9306,158.4028,4.15,73,96,7.09,RU,1682317339
368,saipan,15.1355,145.701,29.39,100,40,6.69,MP,1682317339
369,siwa oasis,29.2041,25.5195,21.6,41,0,7.89,EG,1682317339
370,san buenaventura,27.0833,-101.5333,14.15,75,100,0.41,MX,1682317340
371,horsham,51.064,-0.3272,8.26,87,40,2.57,GB,1682317340
372,port blair,11.6667,92.75,31.2,62,24,5.51,IN,1682317340
373,ma'rib,15.4591,45.3253,26.68,42,72,3.07,YE,1682317340
374,udangudi,8.4333,78.0167,33.1,58,41,4.92,IN,1682317341
375,talara,-4.5772,-81.2719,25.88,78,100,3.51,PE,1682317341
376,markovo,57.3206,107.0881,3.98,45,52,2.27,RU,1682317342
377,shubarkuduk,49.1447,56.4872,15.57,46,1,2.88,KZ,1682317342
378,palmer,42.1584,-72.3287,7.7,87,100,1.54,US,1682317342
379,changyon,38.2508,125.0961,19.42,31,100,3.16,KP,1682317343
380,tralee,52.2704,-9.7026,6.7,90,85,5.44,IE,1682317343
381,dyurtyuli,55.4911,54.8688,16.1,42,54,5.24,RU,1682317344
382,praia da vitoria,38.7333,-27.0667,18.14,88,75,9.69,PT,1682317344
383,san pedro pochutla,15.7333,-96.4667,25.4,81,78,2.42,MX,1682317344
384,piacabucu,-10.4056,-36.4344,24.74,81,22,2.78,BR,1682317345
385,weyburn,49.6668,-103.8511,-5.88,86,61,3.09,CA,1682317345
386,sitka,57.0531,-135.33,6.94,81,100,4.12,US,1682317346
387,balsas,-7.5325,-46.0356,21.47,72,78,0.79,BR,1682317346
388,wellington,-41.2866,174.7756,12.81,56,3,12.35,NZ,1682317227
389,hamilton,39.1834,-84.5333,3.76,83,75,0.0,US,1682317347
390,mount pearl,47.5166,-52.7813,2.2,96,100,8.23,CA,1682317347
391,campos dos goytacazes,-21.75,-41.3,17.28,91,0,2.38,BR,1682317348
392,ago-are,8.5,3.4167,24.02,93,100,1.68,NG,1682317348
393,eyl,7.9803,49.8164,29.94,61,22,2.52,SO,1682317348
394,isangel,-19.55,169.2667,28.06,78,75,1.54,VU,1682317349
395,corinth,37.9407,22.9573,16.61,63,2,0.8,GR,1682317349
396,namsos,64.4662,11.4957,2.03,93,75,2.06,NO,1682317349
397,bull savanna,17.8868,-77.5902,22.28,78,15,2.4,JM,1682317350
398,sisimiut,66.9395,-53.6735,-0.55,98,100,2.14,GL,1682317351
399,abilene,32.4487,-99.7331,9.32,87,100,1.54,US,1682317351
400,paracuru,-3.41,-39.0306,25.62,91,69,3.3,BR,1682317351
401,peebles,55.6519,-3.1888,4.29,81,67,0.45,GB,1682317351
402,burao,9.5221,45.5336,26.27,57,49,5.06,SO,1682317352
403,coondapoor,13.6333,74.7,31.9,49,29,4.8,IN,1682317352
404,ulladulla,-35.35,150.4667,20.98,74,48,3.68,AU,1682317353
405,liepaja,56.5419,21.0367,7.99,100,100,0.0,LV,1682317353
406,ikalamavony,-21.15,46.5833,22.21,74,0,1.48,MG,1682317353
407,suva,-18.1416,178.4415,26.71,74,75,0.0,FJ,1682317068
408,castillos,-34.1667,-53.8333,16.74,96,91,1.71,UY,1682317354
409,topchikha,52.8192,83.1185,15.06,44,85,10.17,RU,1682317354
410,remire-montjoly,4.9167,-52.2667,23.02,100,100,0.0,GF,1682317354
411,concordia,-31.393,-58.0209,16.55,86,84,1.34,AR,1682317255
412,palmas,-10.2128,-48.3603,22.93,94,20,2.06,BR,1682317355
413,carnarvon,-24.8667,113.6333,23.14,62,100,7.91,AU,1682317355
414,ta`u,-14.2336,-169.5144,27.12,76,24,3.23,AS,1682317356
415,torghay,49.6339,63.4981,16.2,42,6,4.53,KZ,1682317356
416,neiafu,-18.65,-173.9833,25.38,78,20,0.0,TO,1682317356
417,bintulu,3.1667,113.0333,25.23,100,40,1.03,MY,1682317357
418,eureka,40.8021,-124.1637,10.41,88,81,1.96,US,1682317357
419,sanctuary point,-35.1114,150.629,20.18,76,71,2.9,AU,1682317357
420,san jose de jachal,-30.2406,-68.7469,12.73,69,58,0.83,AR,1682317358
421,qarazhal,48.0078,70.7903,16.7,39,15,6.53,KZ,1682317358
422,kandahar,31.0,65.75,29.31,4,95,5.48,AF,1682317146
423,cadale,2.7603,46.3222,29.64,69,84,2.94,SO,1682317358
424,cheremushki,52.8356,91.3944,12.52,44,100,1.74,RU,1682317359
425,nouadhibou,20.931,-17.0347,18.99,72,53,9.26,MR,1682317359
426,aykhal,66.0,111.5,-2.35,76,92,1.97,RU,1682317359
427,vryburg,-26.9566,24.7284,18.34,20,48,0.79,ZA,1682317360
428,malindi,-3.2175,40.1191,27.19,81,100,4.99,KE,1682317183
429,banjar,-8.19,114.9675,29.79,75,42,2.03,ID,1682317360
430,zomba,-15.386,35.3188,20.94,68,56,0.53,MW,1682317360
431,punta del este,-34.9667,-54.95,17.15,97,75,2.06,UY,1682317314
432,manado,1.487,124.8455,33.43,58,40,3.09,ID,1682317177
433,tolanaro,-25.0319,46.9987,26.04,65,40,5.14,MG,1682317361
434,vila franca do campo,37.7167,-25.4333,16.23,94,100,7.08,PT,1682317362
435,kondagaon,19.6,81.6667,33.42,27,6,2.73,IN,1682317362
436,kenora,49.8167,-94.4337,-0.46,51,75,2.57,CA,1682317362
437,gereida,11.2811,25.1414,27.54,56,91,4.71,SD,1682317362
438,sarankhola,22.3082,89.7897,36.27,29,0,2.91,BD,1682317363
439,cockburn town,21.4612,-71.1419,24.95,73,5,2.12,TC,1682317363
440,quatre cocos,-20.2078,57.7625,29.06,74,54,3.89,MU,1682317363
441,antsiranana,-12.2787,49.2917,28.17,73,61,3.44,MG,1682317363
442,yanchep,-31.55,115.6833,17.29,60,92,7.89,AU,1682317364
443,las khorey,11.1595,48.1967,30.03,64,13,2.11,SO,1682317364
444,yemel'yanovo,56.1681,92.6767,14.49,18,0,5.0,RU,1682317364
445,bargaal,11.2864,51.0773,29.63,56,16,4.13,SO,1682317365
446,kurgan,55.45,65.3333,11.11,40,29,6.99,RU,1682317278
447,callao,-12.0667,-77.15,23.73,78,0,4.12,PE,1682317365
448,tambopata,-12.7333,-69.1833,19.96,89,21,1.04,PE,1682317365
449,flying fish cove,-10.4217,105.6791,26.62,82,48,5.99,CX,1682317366
450,ilha de mocambique,-15.0342,40.7358,25.89,78,72,3.64,MZ,1682317366
451,usogorsk,63.4106,48.6872,0.61,69,100,2.41,RU,1682317366
452,el granada,37.5027,-122.4694,12.8,84,100,10.29,US,1682317367
453,baddomalhi,31.9928,74.6683,33.99,13,1,0.39,PK,1682317367
454,alvaraes,-3.2208,-64.8042,22.11,98,63,1.07,BR,1682317367
455,borgo val di taro,44.487,9.7658,13.52,88,99,0.45,IT,1682317367
456,rongelap,11.1635,166.8941,27.1,83,60,9.25,MH,1682317368
457,toliara,-23.35,43.6667,24.17,76,35,1.56,MG,1682317368
458,nzerekore,7.7562,-8.8179,21.96,98,48,0.85,GN,1682317368
459,igarka,67.4667,86.5833,0.91,100,100,7.27,RU,1682317368
460,al bayda',32.7627,21.7551,16.64,56,73,2.58,LY,1682317243
461,mombetsu,44.3525,143.3525,6.01,75,75,3.09,JP,1682317369
462,tofol,5.3248,163.0078,25.88,94,100,4.12,FM,1682317369
463,kaa-khem,51.6833,94.7333,9.97,28,71,3.24,RU,1682317369
464,scone,56.4194,-3.4051,4.98,80,68,1.94,GB,1682317370
465,cabo san lucas,22.8909,-109.9124,24.17,55,96,0.45,MX,1682317119
466,mau,25.95,83.55,35.41,18,71,3.56,IN,1682317161
467,mirny,62.5353,113.9611,0.13,50,55,4.02,RU,1682317370
468,magnitogorsk,53.4186,59.0472,17.46,25,13,3.0,RU,1682317371
469,ranot,7.7777,100.3213,31.01,63,79,4.34,TH,1682317371
470,turkmenbasy,40.0222,52.9552,23.43,40,0,8.23,TM,1682317371
471,lautoka,-17.6167,177.4667,27.92,74,75,2.06,FJ,1682317371
472,kalemie,-5.9475,29.1947,21.88,87,84,3.28,CD,1682317372
473,bernardo de irigoyen,-26.2552,-53.6458,13.05,76,0,2.17,AR,1682317372
474,san mateo del mar,16.2,-95.0,28.68,72,100,6.08,MX,1682317372
475,villa union,23.2,-106.2333,23.28,100,40,0.0,MX,1682317372
476,lazaro cardenas,17.9583,-102.2,23.5,82,57,1.13,MX,1682317373
477,armacao de buzios,-22.7469,-41.8817,18.03,83,0,2.73,BR,1682317373
478,susuman,62.7833,148.1667,-2.74,75,100,7.16,RU,1682317373
479,noshiro,40.2039,140.0242,10.46,36,8,8.75,JP,1682317373
480,salalah,17.0151,54.0924,31.05,62,0,6.17,OM,1682317262
481,sinabang,2.4803,96.3801,29.31,74,100,0.71,ID,1682317374
482,saint-francois,46.4154,3.9054,8.71,87,0,3.6,FR,1682317374
483,lorengau,-2.0226,147.2712,29.35,73,67,4.38,PG,1682317375
484,sabha,27.0377,14.4283,19.02,51,99,8.88,LY,1682317375
485,bolokhovo,54.0936,37.8183,14.48,47,51,2.5,RU,1682317375
486,asau,46.4333,26.4,8.51,66,15,1.42,RO,1682317375
487,twentynine palms,34.1356,-116.0542,23.08,32,26,3.58,US,1682317376
488,tobelo,1.7284,128.0095,29.0,74,75,0.88,ID,1682317376
489,sungai raya,0.7,108.9,29.51,75,65,2.94,ID,1682317114
490,dalandzadgad,43.5708,104.425,7.52,68,99,7.49,MN,1682317376
491,shyryayeve,47.3805,30.1964,13.04,57,100,2.63,UA,1682317377
492,shubarshi,48.5872,57.1869,15.84,50,0,2.66,KZ,1682317377
493,port shepstone,-30.7414,30.455,20.59,58,74,3.9,ZA,1682317377
494,viedma,-40.8135,-62.9967,13.77,59,0,4.94,AR,1682317224
495,hilo,19.7297,-155.09,24.6,84,100,1.54,US,1682317203
496,yeniseysk,58.4497,92.1703,9.61,58,100,3.28,RU,1682317378
497,fallon,39.4735,-118.7774,14.69,34,0,5.14,US,1682317378
498,meulaboh,4.1363,96.1285,30.58,66,90,2.35,ID,1682317379
499,wynyard,-41.0,145.7167,16.66,85,21,1.5,AU,1682317379
500,virpur,23.1833,73.4833,35.75,9,25,1.21,IN,1682317379
501,ajdabiya,30.7554,20.2263,21.44,44,26,3.8,LY,1682317379
502,lagunas,-5.2269,-75.6753,23.83,92,100,0.41,PE,1682317380
503,letlhakeng,-24.0944,25.0298,21.09,20,6,2.68,BW,1682317380
504,tosontsengel,48.7567,98.2839,2.11,48,68,2.47,MN,1682317380
505,camana,-16.6228,-72.7111,20.9,88,13,3.13,PE,1682317380
506,i-n-salah,27.1935,2.4607,22.85,16,28,7.26,DZ,1682317381
507,songjianghe,42.1859,127.479,11.59,12,16,2.28,CN,1682317381
508,san mariano,7.5,126.0,28.42,81,97,1.48,PH,1682317381
509,prince rupert,54.3161,-130.3201,6.83,92,100,7.72,CA,1682317243
510,valparaiso,-33.0393,-71.6273,16.11,63,100,1.54,CL,1682317109
511,saint-joseph,-21.3667,55.6167,28.59,67,13,1.4,RE,1682317382
512,kiunga,-6.1219,141.2906,30.79,60,96,1.16,PG,1682317383
513,portland,45.5234,-122.6762,10.35,84,100,4.02,US,1682316850
514,dryden,49.7833,-92.7503,-3.84,68,0,1.54,CA,1682317383
515,island harbour,50.724,-1.2758,7.74,93,7,0.89,GB,1682317383
516,porto velho,-8.7619,-63.9039,24.03,94,20,0.0,BR,1682317384
517,chibougamau,49.9168,-74.3659,1.79,100,100,1.54,CA,1682317384
518,barra de santo antonio,-9.4047,-35.5072,25.6,85,96,3.28,BR,1682317384
519,saint andrews,34.0454,-81.1293,17.03,57,98,2.84,US,1682317384
520,mwene-ditu,-7.0,23.45,20.27,95,93,1.49,CD,1682317385
521,kingston,17.997,-76.7936,26.53,69,20,2.57,JM,1682317179
522,katsuura,35.1333,140.3,12.61,59,100,5.03,JP,1682317385
523,limassol,34.675,33.0333,19.04,63,20,6.17,CY,1682317386
524,crookston,47.7741,-96.6081,-0.94,93,75,0.0,US,1682317386
525,palikir - national government center,6.9248,158.1611,28.41,74,100,1.54,FM,1682317386
526,solnechnogorsk,56.1833,36.9833,14.92,51,84,2.64,RU,1682317387
527,cao bang,22.6667,106.25,26.41,81,100,2.02,VN,1682317387
528,murun-kuren,49.6342,100.1625,6.74,24,20,2.31,MN,1682317387
529,cody,44.5263,-109.0565,6.12,45,0,0.0,US,1682317388
530,quibala,-10.7337,14.98,18.09,95,100,1.12,AO,1682317388
531,boyolangu,-8.1181,111.8935,29.3,73,56,2.5,ID,1682317388
532,tabalah,19.95,42.4,22.58,36,1,1.2,SA,1682317388
533,dungarpur,23.8333,73.7167,33.51,10,6,0.98,IN,1682317389
534,geraldton,-28.7667,114.6,20.23,60,100,6.69,AU,1682317389
535,lagoa,39.05,-27.9833,15.54,92,100,7.87,PT,1682317389
536,barakani,-12.1356,44.4317,27.72,78,86,1.76,KM,1682317389
537,kununurra,-15.7667,128.7333,33.99,36,2,3.09,AU,1682317390
538,talcahuano,-36.7167,-73.1167,11.82,94,100,1.54,CL,1682317091
539,richards bay,-28.783,32.0377,20.91,70,51,2.49,ZA,1682317390
540,sita road,27.0333,67.85,36.33,5,42,2.54,PK,1682317391
541,floro,61.5996,5.0328,4.57,65,75,5.14,NO,1682317391
542,moranbah,-22.0016,148.0466,24.86,53,80,9.36,AU,1682317363
543,nangomba,-10.9,38.5,24.56,90,31,1.21,TZ,1682317391
544,chabahar,25.2919,60.643,29.08,54,97,3.09,IR,1682317392
545,dengi,9.3667,9.95,26.66,70,100,1.52,NG,1682317392
546,amuntai,-2.4177,115.2494,34.01,51,51,0.7,ID,1682317392
547,lido di jesolo,45.5069,12.6469,14.62,84,97,3.88,IT,1682317393
548,north platte,41.1239,-100.7654,4.65,46,65,5.81,US,1682317393
549,edessa,37.1671,38.7939,15.9,47,0,5.26,TR,1682317393
550,mezhdurechenskiy,59.6,65.9333,3.9,32,25,6.26,RU,1682317393
551,puerto carreno,6.189,-67.4859,24.85,85,79,1.51,CO,1682317394
552,qingdao,36.0986,120.3719,18.78,24,0,4.0,CN,1682317394
553,yarega,63.4354,53.5765,-1.2,69,95,2.67,RU,1682317395
554,marion,39.7684,-86.1555,2.54,74,20,2.57,US,1682317395
555,stephenville,32.2207,-98.2023,8.07,94,40,0.0,US,1682317338
556,makow mazowiecki,52.8649,21.1005,14.94,76,84,4.39,PL,1682317395
557,ust'-barguzin,53.45,108.9833,0.96,45,0,1.83,RU,1682317396
558,bechar,31.6167,-2.2167,19.81,44,87,2.88,DZ,1682317396
559,muscatine,41.4667,-91.1335,1.16,72,0,0.0,US,1682317396
560,mogoditshane,-24.6269,25.8656,14.86,55,0,0.0,BW,1682317397
561,jayapura,-2.5333,140.7,32.66,76,100,2.52,ID,1682317397
562,ciudad lazaro cardenas,17.9583,-102.2,23.5,82,57,1.13,MX,1682317373
563,bulgan,48.8125,103.5347,4.5,36,95,1.93,MN,1682317398
564,karoi,-16.8099,29.6925,20.76,57,98,2.7,ZW,1682317154
565,lubang,13.8584,120.124,29.09,73,81,5.01,PH,1682317398
566,mamboma,8.0833,-11.6833,24.79,92,51,0.35,SL,1682317398
567,viriat,46.2548,5.2157,10.93,86,70,1.79,FR,1682317399
568,waddan,29.1614,16.139,16.63,73,83,4.77,LY,1682317399
569,jose maria morelos,23.3952,-103.8984,10.09,32,76,2.99,MX,1682317399
570,praia,14.9215,-23.5087,21.3,78,40,6.69,CV,1682317399
571,isla mujeres,21.2311,-86.731,26.03,77,28,5.21,MX,1682317400
572,uray,60.1247,64.7758,3.46,29,32,6.49,RU,1682317400
573,port augusta,-32.5,137.7667,28.41,23,0,3.18,AU,1682317401
574,skovorodino,53.9833,123.9167,4.77,30,96,2.62,RU,1682317401
575,aginskoye,51.1,114.53,5.5,14,99,7.3,RU,1682317402
576,shenjiamen,29.9576,122.298,13.77,89,100,8.93,CN,1682317402
577,loures,38.8309,-9.1685,15.65,93,20,3.6,PT,1682317402
578,kerikeri,-35.2268,173.9474,14.39,75,2,1.34,NZ,1682317402
579,necochea,-38.5473,-58.7368,12.19,89,1,3.54,AR,1682317403
580,whakatane,-37.9585,176.9854,14.17,65,11,1.34,NZ,1682317403
581,porto novo,6.4965,2.6036,26.19,89,100,0.99,BJ,1682317403
582,cova figueira,14.8905,-24.2934,20.19,73,3,7.9,CV,1682317403
